{"data":{"airports":[{"coordinates":"2.55, 49.012798","iataCode":"CDG","country":"FR","municipality":"Paris","name":"Charles de Gaulle International Airport","type":"large_airport"},{"coordinates":"2.3794444, 48.7233333","iataCode":"ORY","country":"FR","municipality":"Paris","name":"Paris-Orly Airport","type":"large_airport"},{"coordinates":"24.47279930114746, 58.41899871826172","iataCode":"EPU","country":"EE","municipality":"Pärnu","name":"Pärnu Airport","type":"medium_airport"},{"coordinates":"-81.43920135498047, 39.34510040283203","iataCode":"PKB","country":"US","municipality":"Parkersburg","name":"Mid Ohio Valley Regional Airport","type":"medium_airport"},{"coordinates":"-95.450798034668, 33.636600494385","iataCode":"PRX","country":"US","municipality":"Paris","name":"Cox Field","type":"medium_airport"},{"coordinates":"2.1127800941467285, 49.45439910888672","iataCode":"BVA","country":"FR","municipality":"Beauvais/Tillé","name":"Paris Beauvais Tillé Airport","type":"medium_airport"},{"coordinates":"2.441390037536621, 48.969398498535156","iataCode":"LBG","country":"FR","municipality":"Paris","name":"Paris-Le Bourget Airport","type":"medium_airport"},{"coordinates":"10.2964, 44.824501","iataCode":"PMF","country":"IT","municipality":"Parma","name":"Parma Airport","type":"medium_airport"},{"coordinates":"15.73859977722168, 50.01340103149414","iataCode":"PED","country":"CZ","municipality":"Pardubice","name":"Pardubice Airport","type":"medium_airport"},{"coordinates":"174.98899841308594, -40.904701232910156","iataCode":"PPQ","country":"NZ","municipality":null,"name":"Paraparaumu Airport","type":"medium_airport"}]}}