{"data":{"airports":[{"coordinates":"4.48443984985, 50.901401519800004","iataCode":"BRU","country":"BE","municipality":"Brussels","name":"Brussels Airport","type":"large_airport"},{"coordinates":"4.45382, 50.459202","iataCode":"CRL","country":"BE","municipality":"Brussels","name":"Brussels South Charleroi Airport","type":"large_airport"},{"coordinates":"114.9280014038086, 4.944200038909912","iataCode":"BWN","country":"BN","municipality":"Bandar Seri Begawan","name":"Brunei International Airport","type":"large_airport"},{"coordinates":"-81.46649932861328, 31.258800506591797","iataCode":"BQK","country":"US","municipality":"Brunswick","name":"Brunswick Golden Isles Airport","type":"medium_airport"},{"coordinates":"-69.93859863, 43.89220047","iataCode":"NHZ","country":"US","municipality":"Brunswick","name":"Brunswick Executive Airport","type":"medium_airport"},{"coordinates":"7.68483018875, 52.134601593","iataCode":"FMO","country":"DE","municipality":"Münster","name":"Münster Osnabrück Airport","type":"large_airport"},{"coordinates":"2.8622200489, 51.198898315399994","iataCode":"OST","country":"BE","municipality":"Ostend","name":"Ostend-Bruges International Airport","type":"medium_airport"},{"coordinates":"7.10950994492, 49.214599609400004","iataCode":"SCN","country":"DE","municipality":"Saarbrücken","name":"Saarbrücken Airport","type":"medium_airport"},{"coordinates":"11.344, 47.260201","iataCode":"INN","country":"AT","municipality":"Innsbruck","name":"Innsbruck Airport","type":"medium_airport"},{"coordinates":"-82.95890045166016, 8.826109886169434","iataCode":"TOO","country":"CR","municipality":"Coto Brus","name":"San Vito De Java Airport","type":"medium_airport"}]}}